City_ID,City,Lat,Lng,Max Temp,Humidity,Cloudiness,Wind Speed,Country,Date
0,raja,8.4596,25.678,293.69,93,100,1.36,SS,1690415944
1,east london,-33.0153,27.9116,291.21,66,76,5.96,ZA,1690415945
2,yellowknife,62.456,-114.3525,298.44,31,75,5.66,CA,1690415757
3,pereslavl'-zalesskiy,56.7393,38.8563,288.28,98,68,3.96,RU,1690415946
4,grytviken,-54.2811,-36.5092,273.6,98,100,5.0,GS,1690415946
5,tazovsky,67.4667,78.7,290.06,87,16,1.44,RU,1690415947
6,ushuaia,-54.8,-68.3,273.96,80,20,7.72,AR,1690415947
7,margaret river,-33.95,115.0667,286.06,70,97,6.72,AU,1690415948
8,port-aux-francais,-49.35,70.2167,277.75,77,79,17.78,TF,1690415948
9,klyuchi,52.2667,79.1667,294.68,41,99,2.24,RU,1690415948
10,pendleton,45.6721,-118.7886,303.26,23,0,6.17,US,1690415949
11,petropavlovsk-kamchatsky,53.0452,158.6483,295.48,68,0,2.0,RU,1690415789
12,minas de marcona,-15.2119,-75.1103,285.47,86,28,6.07,PE,1690415950
13,shahpura,27.3833,75.9667,300.33,83,100,1.47,IN,1690415950
14,nar'yan-mar,67.6713,53.087,290.18,68,93,1.37,RU,1690415951
15,pisco,-13.7,-76.2167,292.18,72,0,7.72,PE,1690415951
16,biloela,-24.4167,150.5,293.58,46,6,7.23,AU,1690415952
17,blackmans bay,-43.0167,147.3167,282.89,86,98,2.1,AU,1690415952
18,whitehorse,60.7161,-135.0538,295.94,50,75,2.57,CA,1690415870
19,peniche,39.3558,-9.3811,292.75,91,38,8.11,PT,1690415953
20,kitimat,54.0524,-128.6534,295.36,62,83,3.13,CA,1690415953
21,adamstown,-25.066,-130.1015,293.06,63,48,7.21,PN,1690415954
22,iqaluit,63.7506,-68.5145,282.0,76,40,2.06,CA,1690415954
23,puerto ayora,-0.7393,-90.3518,298.46,93,88,2.68,EC,1690415954
24,port mathurin,-19.6833,63.4167,296.87,78,74,7.19,MU,1690415955
25,katabu,-4.9333,122.5167,299.36,72,26,2.79,ID,1690415956
26,tiksi,71.6872,128.8694,281.72,69,39,1.67,RU,1690415956
27,kingston,17.997,-76.7936,304.68,75,20,2.06,JM,1690415661
28,kodiak,57.79,-152.4072,287.88,82,100,3.09,US,1690415957
29,jinchang,38.4953,102.1739,297.3,39,100,0.91,CN,1690415958
30,thompson,55.7435,-97.8558,288.24,72,100,2.57,CA,1690415958
31,bull savanna,17.8868,-77.5902,300.16,75,89,1.43,JM,1690415959
32,college,64.8569,-147.8028,301.53,56,75,2.57,US,1690415960
33,nemuro,43.3236,145.575,291.43,95,76,1.75,JP,1690415960
34,walvis bay,-22.9575,14.5053,284.31,87,15,3.09,NA,1690415961
35,tupiza,-21.45,-65.7167,282.72,37,0,2.94,BO,1690415961
36,puerto natales,-51.7236,-72.4875,272.18,91,100,1.44,CL,1690415962
37,hasaki,35.7333,140.8333,309.43,74,9,4.11,JP,1690415962
38,prien,30.1819,-93.2738,307.27,56,20,3.6,US,1690415963
39,hamilton,39.1834,-84.5333,304.04,69,0,8.75,US,1690415723
40,isafjordur,66.0755,-23.124,280.27,85,84,4.64,IS,1690415956
41,ha'il,27.5219,41.6907,301.16,20,0,2.06,SA,1690415964
42,lihue,21.9789,-159.3672,303.92,64,20,6.17,US,1690415965
43,polyany,54.7122,39.8231,290.63,97,5,2.98,RU,1690415965
44,urangan,-25.3,152.9,291.59,88,45,7.05,AU,1690415965
45,atafu village,-8.5421,-172.5159,301.73,74,56,8.09,TK,1690415966
46,tougan,13.0667,-3.0667,302.99,53,84,5.1,BF,1690415967
47,dudinka,69.4058,86.1778,295.72,66,25,1.05,RU,1690415968
48,san carlos,9.6612,-68.5827,296.92,97,73,0.66,VE,1690415969
49,enewetak,11.3474,162.3373,301.61,76,90,6.12,MH,1690415969
50,invercargill,-46.4,168.35,280.63,62,100,7.83,NZ,1690415937
51,vilyuysk,63.7553,121.6247,291.55,44,63,3.37,RU,1690415970
52,waitangi,-43.9535,-176.5597,281.94,87,92,0.89,NZ,1690415961
53,port lincoln,-34.7333,135.8667,288.39,56,50,8.32,AU,1690415698
54,namibe,-15.1961,12.1522,288.99,89,73,2.94,AO,1690415972
55,anadyr,64.75,177.4833,285.43,87,75,4.0,RU,1690415973
56,nadym,65.5333,72.5167,291.64,82,10,2.85,RU,1690415973
57,bethel,41.3712,-73.414,300.35,75,42,2.13,US,1690415974
58,manakara,-22.1333,48.0167,290.34,73,67,2.29,MG,1690415974
59,the pas,53.8251,-101.2541,285.16,94,100,4.63,CA,1690415880
60,stanley,54.868,-1.6985,286.64,94,75,1.54,GB,1690415975
61,sebastopol,44.6,33.5333,297.21,59,0,6.54,UA,1690415975
62,keflavik,64.0049,-22.5624,285.1,82,75,2.06,IS,1690415976
63,bredasdorp,-34.5322,20.0403,282.17,92,37,1.86,ZA,1690415961
64,lebu,-37.6167,-73.65,281.88,85,95,0.98,CL,1690415972
65,west island,-12.1568,96.8225,297.14,83,75,10.8,CC,1690415977
66,nezhinka,51.7676,55.3694,291.24,82,0,2.0,RU,1690415978
67,turpan,42.9333,89.1667,309.77,11,1,0.39,CN,1690415978
68,onega,63.9061,38.1404,285.63,90,100,1.5,RU,1690415979
69,saipan,15.1355,145.701,300.54,100,100,7.6,MP,1690415979
70,tabriz,38.08,46.2919,294.85,49,20,4.12,IR,1690415980
71,jamestown,42.097,-79.2353,299.95,60,100,5.14,US,1690415980
72,aasiaat,68.7098,-52.8699,276.44,93,29,3.7,GL,1690415980
73,alesund,62.4723,6.1549,287.78,93,100,1.54,NO,1690415981
74,ribeira grande,38.5167,-28.7,296.36,94,28,3.13,PT,1690415981
75,hermanus,-34.4187,19.2345,285.18,82,3,2.98,ZA,1690415983
76,vorgashor,67.5833,63.95,286.38,96,100,2.84,RU,1690415984
77,kolwezi,-10.7148,25.4667,287.71,46,3,2.46,CD,1690415984
78,chilliwack,49.1747,-121.9443,298.32,46,24,2.06,CA,1690415985
79,happy valley-goose bay,53.3168,-60.3315,299.32,36,75,1.54,CA,1690415985
80,vorkuta,67.5,64.0,286.89,96,100,2.89,RU,1690415986
81,lazaro cardenas,17.9583,-102.2,303.73,63,28,4.03,MX,1690415765
82,san patricio,28.017,-97.5169,307.69,55,1,7.52,US,1690415987
83,hawaiian paradise park,19.5933,-154.9731,301.89,79,40,4.63,US,1690415694
84,kruisfontein,-34.0033,24.7314,284.2,82,99,4.58,ZA,1690415987
85,coquimbo,-29.9533,-71.3436,287.0,88,75,2.06,CL,1690415988
86,margate,51.3813,1.3862,290.32,94,100,4.47,GB,1690415988
87,bilibino,68.0546,166.4372,284.25,71,64,2.15,RU,1690415965
88,tual,-5.6667,132.75,299.13,84,92,9.76,ID,1690415989
89,warman,52.3168,-106.5679,298.1,31,40,4.12,CA,1690415990
90,lerwick,60.1545,-1.1494,283.15,86,4,1.68,GB,1690415990
91,tralee,52.2704,-9.7026,289.0,98,100,3.68,IE,1690415991
92,geraldton,-28.7667,114.6,283.38,93,75,3.6,AU,1690415713
93,utrik,11.2278,169.8474,301.49,78,100,8.49,MH,1690415992
94,avarua,-21.2078,-159.775,297.18,64,75,2.57,CK,1690415976
95,riosucio,5.4216,-75.7032,291.25,97,100,0.82,CO,1690415993
96,susuman,62.7833,148.1667,283.29,84,100,2.82,RU,1690415993
97,west end,26.6833,-78.9667,296.14,79,100,7.69,BS,1690415994
98,lorengau,-2.0226,147.2712,302.3,74,96,6.2,PG,1690415994
99,tambopata,-12.7333,-69.1833,298.09,88,20,2.06,PE,1690415995
100,edinburgh of the seven seas,-37.0676,-12.3116,283.9,54,61,10.82,SH,1690415995
101,ketchikan,55.3422,-131.6461,291.14,64,64,1.59,US,1690415995
102,st. john's,47.5649,-52.7093,295.81,68,75,8.23,CA,1690415996
103,oranjemund,-28.55,16.4333,284.95,73,0,2.56,NA,1690415996
104,la passe,45.5549,-0.8967,292.58,93,2,2.72,FR,1690415997
105,port elizabeth,-33.918,25.5701,287.31,67,20,2.57,ZA,1690415997
106,porto novo,6.4965,2.6036,299.05,93,67,2.63,BJ,1690415998
107,port alfred,-33.5906,26.891,290.29,78,100,6.22,ZA,1690415998
108,patos,-7.0244,-37.28,297.78,56,11,7.64,BR,1690415898
109,punta arenas,-53.15,-70.9167,273.46,75,15,5.07,CL,1690415953
110,katsuura,35.1333,140.3,301.45,74,7,3.3,JP,1690416000
111,champerico,14.3,-91.9167,303.3,69,7,4.02,GT,1690415991
112,port saint john's,-31.6229,29.5448,289.28,40,82,1.47,ZA,1690416001
113,hithadhoo,-0.6,73.0833,301.28,78,31,7.09,MV,1690416004
114,georgetown,5.4112,100.3354,300.38,95,40,0.0,MY,1690415883
115,papatowai,-46.5619,169.4708,279.33,74,100,10.49,NZ,1690415961
116,cidreira,-30.1811,-50.2056,289.5,92,97,4.14,BR,1690416028
117,pingzhuang,42.0372,119.2889,299.42,69,100,4.27,CN,1690416030
118,alta,69.9689,23.2717,287.74,80,100,4.47,NO,1690416031
119,rikaze,29.25,88.8833,282.61,89,100,2.11,CN,1690416032
120,luanco,43.6152,-5.7934,293.86,86,0,1.37,ES,1690416033
121,tura,25.5198,90.2201,296.87,93,100,1.49,IN,1690416033
122,colonia,50.9333,6.95,290.91,71,0,4.12,DE,1690415977
123,kapa'a,22.0752,-159.319,302.14,76,51,1.79,US,1690416034
124,kargasok,59.0556,80.8572,288.58,93,60,3.07,RU,1690416036
125,longyearbyen,78.2186,15.6401,284.06,76,40,2.57,SJ,1690415954
126,kavaratti,10.5669,72.642,301.33,71,100,6.26,IN,1690416037
127,port macquarie,-31.4333,152.9167,290.31,65,7,1.84,AU,1690415893
128,yaren,-0.5472,166.916,301.98,75,92,4.44,NR,1690416039
129,ilulissat,69.2167,-51.1,277.03,78,3,2.86,GL,1690416040
130,north vernon,39.0062,-85.6236,302.43,74,85,7.05,US,1690416040
131,khandyga,62.6667,135.6,293.69,35,0,5.61,RU,1690416041
132,darwin,-12.4611,130.8418,295.31,60,0,2.57,AU,1690416011
133,san antonio de pale,-1.4014,5.6325,296.11,91,100,5.07,GQ,1690416042
134,newnan,33.3807,-84.7997,305.38,55,0,0.0,US,1690416005
135,mhamid,29.82,-5.72,309.49,6,0,3.14,MA,1690416043
136,tashtyp,52.7939,89.8983,289.05,79,84,0.93,RU,1690416043
137,chonchi,-42.6128,-73.8092,281.55,97,100,1.12,CL,1690416044
138,trincomalee,8.5711,81.2335,299.39,78,94,4.22,LK,1690416044
139,aksu,41.1231,80.2644,300.28,36,27,2.05,CN,1690416045
140,adrar,20.5022,-10.0711,310.02,9,20,9.73,MR,1690416045
141,ulsteinvik,62.3432,5.8487,287.77,91,91,1.34,NO,1690415973
142,constantia,44.1833,28.65,295.76,72,35,7.03,RO,1690416046
143,holualoa,19.6228,-155.9522,301.79,83,26,3.58,US,1690416020
144,olonkinbyen,70.9221,-8.7187,277.73,90,100,5.54,SJ,1690416047
145,medicine hat,50.0501,-110.6683,301.39,18,20,6.69,CA,1690416002
146,tulun,54.5611,100.5792,289.37,90,94,2.26,RU,1690416048
147,maffra,-37.9667,146.9833,287.93,35,3,1.75,AU,1690416049
148,puerto colombia,10.9878,-74.9547,302.2,86,100,3.74,CO,1690416049
149,sang-e charak,35.8497,66.4369,296.63,16,8,3.91,AF,1690416049
150,ust-nera,64.5667,143.2,287.58,56,85,3.91,RU,1690416050
151,rio grande,-32.035,-52.0986,288.21,87,74,4.52,BR,1690416050
152,salalah,17.0151,54.0924,298.44,96,100,10.04,OM,1690416051
153,badger,64.8,-147.5333,301.48,54,75,2.57,US,1690416051
154,fereydun kenar,36.6864,52.5225,298.76,78,40,2.2,IR,1690416052
155,nova sintra,14.8667,-24.7167,296.22,84,64,7.07,CV,1690416052
156,burley,42.5357,-113.7928,307.15,19,3,0.45,US,1690416053
157,levuka,50.1834,-105.4011,302.0,17,20,7.2,CA,1690416054
158,luau,-10.7073,22.2247,289.85,37,1,2.06,AO,1690416054
159,belomorsk,64.5232,34.7668,282.19,97,14,0.8,RU,1690416055
160,umm kaddadah,13.6017,26.6876,301.29,55,98,6.71,SD,1690416055
161,papao,-17.75,-149.55,297.97,87,61,3.85,PF,1690415955
162,vernon,50.2581,-119.2691,299.98,27,94,1.34,CA,1690416042
163,bagan,54.1001,77.6646,292.73,53,100,2.95,RU,1690416057
164,qaqortoq,60.7167,-46.0333,279.82,84,95,1.68,GL,1690415953
165,greymouth,-42.4667,171.2,283.61,61,84,14.81,NZ,1690416062
166,hualien city,23.9769,121.6044,300.09,100,100,2.99,TW,1690416062
167,labytnangi,66.6572,66.4183,289.31,89,100,5.15,RU,1690416073
168,carlsbad,33.1581,-117.3506,314.1,63,0,6.69,US,1690415955
169,sinabang,2.4803,96.3801,299.63,82,97,1.09,ID,1690416074
170,tolanaro,-25.0319,46.9987,292.19,77,40,5.14,MG,1690415967
171,lagoa,39.05,-27.9833,295.34,92,38,7.15,PT,1690416081
172,suva,-18.1416,178.4415,293.86,94,100,3.09,FJ,1690416084
173,ryotsu-minato,38.0833,138.4333,301.97,68,16,1.31,JP,1690416085
174,alofi,-19.0595,-169.9187,298.09,57,75,1.03,NU,1690416085
175,tonj,7.2737,28.6822,294.41,98,100,1.77,SS,1690416036
176,totness,5.8833,-56.3167,299.24,87,22,3.82,SR,1690416086
177,yuzhno-kurilsk,44.0306,145.8556,294.5,82,92,2.28,RU,1690415980
178,holmsund,63.706,20.3641,285.9,93,75,1.54,SE,1690416087
179,lagunas,-5.2269,-75.6753,301.08,60,69,1.04,PE,1690416088
180,carutapera,-1.195,-46.02,298.13,86,8,3.02,BR,1690416088
181,kuqa,41.7278,82.9364,301.51,28,0,1.43,CN,1690416089
182,vadso,70.0744,29.7487,283.24,93,100,0.0,NO,1690416089
183,czaplinek,53.5578,16.2333,284.01,94,25,2.58,PL,1690416090
184,puerto baquerizo moreno,-0.9,-89.6,297.44,80,80,6.25,EC,1690416036
185,kropachevo,55.0112,57.9896,287.1,91,45,1.98,RU,1690416091
186,jolo,6.05,121.0167,300.57,83,100,5.23,PH,1690416091
187,sheksna,59.21,38.5107,289.13,98,92,2.41,RU,1690416092
188,chibougamau,49.9168,-74.3659,295.94,49,75,3.32,CA,1690416092
189,motueka,-41.1333,173.0167,286.54,54,42,5.19,NZ,1690416093
190,sandnessjoen,66.0217,12.6316,286.44,89,72,2.45,NO,1690416093
191,kattivakkam,13.2167,80.3167,301.2,78,100,8.48,IN,1690416094
192,chimoio,-19.1164,33.4833,284.93,95,17,0.59,MZ,1690416094
193,gamba,-2.65,10.0,293.62,96,70,1.71,GA,1690416042
194,pauini,-7.7136,-66.9764,299.36,51,8,0.98,BR,1690416095
195,senigallia,43.7093,13.2167,297.02,57,75,10.29,IT,1690416095
196,kyren,51.6828,102.1408,289.25,84,30,0.74,RU,1690416096
197,samarinda,-0.5,117.15,298.41,83,98,2.25,ID,1690415905
198,nyurba,63.2842,118.3319,289.33,57,97,3.02,RU,1690416097
199,al majaridah,19.1236,41.9111,305.45,36,6,1.37,SA,1690416098
200,byron bay,-28.65,153.6167,289.66,53,74,2.14,AU,1690415604
201,arraial do cabo,-22.9661,-42.0278,294.38,86,58,9.83,BR,1690415991
202,vilyuchinsk,52.9306,158.4028,296.3,75,100,2.09,RU,1690415976
203,guatrache,-37.6678,-63.5302,278.81,46,54,2.27,AR,1690416100
204,sitka,57.0531,-135.33,288.03,91,100,1.16,US,1690416100
205,monrovia,6.3005,-10.7969,298.02,90,64,1.81,LR,1690415882
206,sitangkai,4.6628,119.3928,301.46,79,99,8.64,PH,1690416101
207,camacupa,-12.0167,17.4833,288.76,40,0,1.38,AO,1690416102
208,freetown,8.484,-13.2299,299.99,89,75,3.09,SL,1690416102
209,talnakh,69.4865,88.3972,295.49,61,50,2.4,RU,1690416103
210,alamos,27.0167,-108.9333,307.07,49,80,3.59,MX,1690416104
211,kyshtovka,56.555,76.6271,289.3,79,100,0.43,RU,1690416104
212,diego de almagro,-26.3667,-70.05,286.65,67,39,1.48,CL,1690416105
213,costa rica,-23.4167,-54.65,295.44,48,96,2.18,BR,1690416105
214,fandrandava,-21.5208,47.2453,281.35,89,83,1.31,MG,1690416106
215,mount isa,-20.7333,139.5,294.02,64,40,5.14,AU,1690416079
216,codrington,-38.2667,141.9667,284.26,71,4,7.04,AU,1690416107
217,amos,48.5669,-78.1162,291.05,97,100,4.79,CA,1690416015
218,toledo,39.8333,-4.0,297.38,27,0,2.52,ES,1690415958
219,khovd,48.0056,91.6419,294.16,35,70,1.08,MN,1690416108
220,howrah,22.5892,88.3103,300.15,94,40,2.57,IN,1690416109
221,whakatane,-37.9585,176.9854,284.14,73,65,1.67,NZ,1690416109
222,castillos,-34.1667,-53.8333,283.25,79,38,6.57,UY,1690416109
223,fale old settlement,-9.3852,-171.2468,301.66,73,14,8.3,TK,1690416110
224,grand-lahou,5.1367,-5.0242,297.01,95,55,2.56,CI,1690416110
225,aral,40.5156,81.2636,300.94,31,0,0.86,CN,1690416111
226,simcoe,42.8334,-80.2997,294.33,90,88,3.94,CA,1690416018
227,bahir dar,11.5936,37.3908,288.84,94,96,1.36,ET,1690416112
228,kerman,30.2832,57.0788,296.07,18,0,2.06,IR,1690415971
229,la'ie,21.6477,-157.9253,304.13,72,32,7.54,US,1690415992
230,xai-xai,-25.0519,33.6442,287.98,80,1,3.93,MZ,1690416113
231,al hudaydah,14.7978,42.9545,305.0,54,53,4.31,YE,1690415939
232,dryden,49.7833,-92.7503,301.31,57,0,3.09,CA,1690416097
233,kerikeri,-35.2268,173.9474,288.1,85,75,0.89,NZ,1690416044
234,cabo san lucas,22.8909,-109.9124,307.93,71,68,2.68,MX,1690416009
235,waddan,29.1614,16.139,305.96,13,0,3.34,LY,1690416116
236,palikir - national government center,6.9248,158.1611,300.66,76,95,3.49,FM,1690416116
237,karimganj,24.8667,92.35,299.09,93,99,0.22,IN,1690416117
238,kolkhozobod,37.5882,68.6589,297.51,16,0,0.79,TJ,1690416117
239,sechura,-5.5569,-80.8222,296.5,69,64,7.78,PE,1690416118
240,cole harbour,44.6724,-63.4751,296.81,83,17,5.66,CA,1690416118
241,egilsstadir,65.2653,-14.3948,280.1,93,100,5.66,IS,1690416112
242,lubang,13.8584,120.124,301.57,83,96,13.75,PH,1690416119
243,lakatoro,-16.0999,167.4164,296.65,73,98,8.19,VU,1690416119
244,carnarvon,-24.8667,113.6333,288.76,56,23,5.29,AU,1690416120
245,sao joao del rei,-21.1356,-44.2617,290.68,71,70,1.63,BR,1690416120
246,machali,-34.1833,-70.6667,281.89,81,100,1.38,CL,1690416092
247,hadibu,12.65,54.0333,298.24,81,32,10.93,YE,1690416121
248,sao joao da barra,-21.6403,-41.0511,296.2,85,30,7.0,BR,1690415881
249,brisas de zicatela,15.8369,-97.0419,302.53,71,10,3.03,MX,1690416122
250,ust'-kulom,61.6864,53.6902,284.95,85,41,1.63,RU,1690416123
251,zhuanghe,39.7008,122.9911,296.82,94,100,2.16,CN,1690416124
252,kuvshinovo,57.0295,34.1725,284.92,96,39,1.91,RU,1690416124
253,iquique,-20.2208,-70.1431,291.17,84,15,0.45,CL,1690416125
254,jamsankoski,61.919,25.1701,287.42,76,100,1.75,FI,1690416126
255,cannonvale,-20.2833,148.7,294.81,65,90,8.6,AU,1690416126
256,nizhnyaya tavda,57.6731,66.1725,287.03,89,10,2.37,RU,1690416127
257,siguiri,11.6667,-9.5,296.16,94,57,1.1,GN,1690416127
258,argostolion,38.1811,20.489,298.5,88,39,4.46,GR,1690416128
259,kasempa,-13.4584,25.8338,287.84,54,2,3.56,ZM,1690416129
260,malanje,-9.5402,16.341,292.3,64,8,1.96,AO,1690416130
261,mount gambier,-37.8333,140.7667,284.29,64,2,5.31,AU,1690416130
262,laguna,38.421,-121.4238,311.23,31,0,7.2,US,1690416130
263,okhotsk,59.3833,143.3,289.26,89,100,1.11,RU,1690416131
264,cruz del eje,-30.7264,-64.8039,286.54,47,89,1.8,AR,1690416131
265,shenjiamen,29.9576,122.298,299.47,88,99,4.56,CN,1690416132
266,adamovka,51.5223,59.9396,292.59,61,47,2.95,RU,1690416133
267,wailua homesteads,22.0669,-159.378,303.59,72,20,6.17,US,1690415973
268,fomboni,-12.28,43.7425,298.51,72,51,6.54,KM,1690416144
269,sagarejo,41.734,45.3315,295.39,65,40,1.05,GE,1690416145
270,muravlenko,63.7898,74.523,291.53,72,29,2.92,RU,1690415977
271,ayvacik,39.6011,26.4047,299.95,37,46,2.65,TR,1690416146
272,vieux-habitants,16.0589,-61.7659,300.91,78,42,5.28,GP,1690416146
273,palmer,42.1584,-72.3287,299.85,69,41,1.34,US,1690416054
274,villa gesell,-37.2639,-56.973,282.62,81,39,10.62,AR,1690416147
275,miri,4.4148,114.0089,298.23,100,20,0.51,MY,1690416148
276,tezu,27.9167,96.1667,298.42,86,100,0.4,IN,1690416149
277,saint-francois,46.4154,3.9054,289.84,72,75,2.06,FR,1690416150
278,kailua-kona,19.6406,-155.9956,303.86,84,16,3.58,US,1690416150
279,carbonear,47.7332,-53.2148,296.06,79,92,5.34,CA,1690416151
280,akjoujt,19.6969,-14.4164,303.1,43,57,6.34,MR,1690416151
281,tangalle,6.024,80.7911,297.84,91,93,4.14,LK,1690416152
282,albany,42.6001,-73.9662,299.58,74,88,0.89,US,1690416089
283,acapulco de juarez,16.8634,-99.8901,304.05,68,29,5.0,MX,1690415913
284,wabag,-5.4781,143.7021,290.88,82,50,1.25,PG,1690416153
285,mufumbwe,-13.6833,24.8,286.46,54,1,2.39,ZM,1690416154
286,iskateley,67.6803,53.1512,290.11,70,92,1.26,RU,1690415980
287,richards bay,-28.783,32.0377,291.23,67,0,8.14,ZA,1690415998
288,yeppoon,-23.1333,150.7333,292.03,75,81,6.82,AU,1690416155
289,amahai,-3.3333,128.9167,299.82,82,58,2.07,ID,1690416155
290,ampanihy,-24.7,44.75,288.64,67,0,5.27,MG,1690416156
291,cuito,-12.3833,16.9333,287.29,41,1,1.01,AO,1690416157
292,guaraniacu,-25.1008,-52.8781,289.41,66,93,1.07,BR,1690415972
293,ponta delgada,37.7333,-25.6667,293.55,77,20,2.57,PT,1690416044
294,ta`u,-14.2336,-169.5144,298.86,72,95,4.92,AS,1690416158
295,koidu,8.4167,-10.8333,295.0,100,99,0.81,SL,1690416158
296,masterton,-40.9597,175.6575,285.31,84,67,5.07,NZ,1690416164
297,porto franco,-6.3383,-47.3992,298.98,40,3,1.16,BR,1690416164
298,caluula,11.9661,50.7569,304.58,50,48,3.39,SO,1690416165
299,neiafu,-18.65,-173.9833,297.53,73,75,2.06,TO,1690416165
300,segou,13.4317,-6.2157,303.18,56,86,4.7,ML,1690416166
301,touros,-5.1989,-35.4608,297.58,85,15,5.88,BR,1690416166
302,dakhla,23.6848,-15.958,293.12,89,0,10.31,EH,1690416167
303,bikenibeu village,1.3673,173.1241,304.13,74,20,2.06,KI,1690416167
304,altamira,-3.2033,-52.2064,299.5,64,51,1.01,BR,1690416103
305,yamada,39.4667,141.95,301.83,64,9,1.4,JP,1690416168
306,buncrana,55.1333,-7.45,288.4,98,100,2.44,IE,1690416169
307,princeville,45.7668,-61.2985,297.21,85,14,1.78,CA,1690416170
308,puerto gaitan,4.3133,-72.0816,299.75,71,52,1.56,CO,1690416143
309,amga,60.8953,131.9608,293.81,56,93,1.57,RU,1690416171
310,novyy urengoy,66.0833,76.6333,293.03,67,61,2.4,RU,1690416172
311,autazes,-3.5797,-59.1306,299.77,53,6,1.22,BR,1690416172
312,grand falls-windsor,48.9332,-55.6649,291.97,93,88,2.3,CA,1690416173
313,uturoa,-16.7333,-151.4333,298.81,84,57,4.45,PF,1690416173
314,rongelap,11.1635,166.8941,301.41,80,99,8.02,MH,1690416174
315,murzuq,25.9155,13.9184,305.24,9,0,4.82,LY,1690416175
316,lompoc,34.6391,-120.4579,304.27,83,100,5.14,US,1690416050
317,qeshm,26.9581,56.2719,306.09,82,100,7.65,IR,1690416176
318,sisimiut,66.9395,-53.6735,279.65,81,41,1.38,GL,1690415998
319,st martin,50.3698,-4.4473,290.3,98,100,9.55,GB,1690416176
320,pokrovsk,48.282,37.1758,293.3,58,4,3.56,UA,1690416177
321,ceeldheer,3.8488,47.1806,297.15,85,89,7.85,SO,1690416177
322,kainantu,-6.2887,145.8655,293.67,68,29,2.1,PG,1690416178
323,fort st. john,56.2499,-120.8529,289.09,82,100,5.66,CA,1690416045
324,ancud,-41.8697,-73.8203,281.17,88,100,1.9,CL,1690416114
325,mampong,7.0627,-1.4001,294.82,99,73,2.04,GH,1690416180
326,whangarei,-35.7317,174.3239,287.44,72,77,4.59,NZ,1690416180
327,sogndal,61.2283,7.1003,286.55,92,90,0.81,NO,1690416181
328,kisangani,0.5167,25.2,296.35,89,100,1.02,CD,1690416182
329,flying fish cove,-10.4217,105.6791,297.96,78,41,8.82,CX,1690416182
330,ghat,24.9647,10.1728,304.55,11,0,0.74,LY,1690416183
331,mount pearl,47.5166,-52.7813,295.34,69,75,8.23,CA,1690416183
332,island harbour,50.724,-1.2758,289.9,95,100,4.47,GB,1690416184
333,kununurra,-15.7667,128.7333,291.14,68,8,0.0,AU,1690416185
334,zilair,52.2332,57.4392,288.62,76,26,1.43,RU,1690416185
335,santa cruz,-17.8,-63.1667,293.18,60,75,5.66,BO,1690415958
336,moquegua,-17.1956,-70.9353,289.19,62,0,0.63,PE,1690416186
337,fort bragg,35.139,-79.006,307.23,71,75,4.63,US,1690415955
338,quellon,-43.1167,-73.6167,281.29,93,100,1.03,CL,1690416094
339,kidodi,-7.6036,37.0044,293.86,67,80,1.03,TZ,1690416188
340,nuuk,64.1835,-51.7216,278.49,100,100,5.66,GL,1690416188
341,at taj,24.2049,23.2857,300.97,14,59,3.13,LY,1690416109
342,gaspe,48.8334,-64.4819,295.27,68,20,2.57,CA,1690416169
343,mar del plata,-38.0023,-57.5575,282.64,87,100,8.05,AR,1690416002
344,kupang,-10.1667,123.5833,297.43,69,59,3.62,ID,1690416190
345,aldan,58.6031,125.3894,295.25,61,22,0.9,RU,1690416190
346,al hazm,16.1641,44.7769,302.92,29,79,3.97,YE,1690416191
347,shingu,33.7333,135.9833,303.46,65,37,2.18,JP,1690415975
348,haiku-pauwela,20.9219,-156.3051,303.8,66,9,5.81,US,1690416127
349,port-gentil,-0.7193,8.7815,296.39,89,75,6.84,GA,1690416192
350,calama,-22.4667,-68.9333,288.42,12,0,6.17,CL,1690416113
351,marquette,46.5333,-87.6335,298.58,82,32,1.34,US,1690416193
352,beilen,52.8611,6.5123,287.5,87,71,3.03,NL,1690416194
353,male,4.1748,73.5089,302.12,89,75,3.09,MV,1690416194
354,howard springs,-12.497,131.047,295.83,29,78,2.77,AU,1690416195
355,sucre,-19.0333,-65.2627,285.43,67,0,2.28,BO,1690416195
356,el galpon,-25.3807,-64.6526,285.63,68,63,0.5,AR,1690416196
357,borovskoy,53.8,64.15,290.72,68,96,2.15,KZ,1690416196
358,atherton,53.5237,-2.4935,288.87,97,100,0.89,GB,1690416197
359,karachev,53.1229,34.9852,290.0,93,69,0.51,RU,1690416198
360,lepsy,46.235,78.9456,298.61,30,0,2.01,KZ,1690416198
361,volcja draga,45.9069,13.6775,288.69,80,8,4.47,SI,1690416199
362,maba,24.6841,113.5984,301.77,77,39,1.6,CN,1690416200
363,udachny,66.4167,112.4,291.18,67,100,4.32,RU,1690415956
364,barra de santo antonio,-9.4047,-35.5072,297.75,79,10,1.91,BR,1690416201
365,alipur,29.3846,70.9116,301.81,80,86,3.51,PK,1690416201
366,kokopo,-4.352,152.2633,301.77,71,36,6.34,PG,1690416202
367,tamala,52.541,43.2515,293.18,71,49,4.11,RU,1690416202
368,port pirie,-33.1833,138.0167,289.57,45,50,4.03,AU,1690416203
369,kwang binh,17.4833,106.6,301.82,74,86,2.93,VN,1690416203
370,navojoa,27.1,-109.4333,309.27,49,66,3.58,MX,1690416203
371,kzyltu,53.6364,72.3414,291.47,82,100,0.97,KZ,1690416204
372,remire-montjoly,4.9167,-52.2667,298.17,100,75,1.03,GF,1690416205
373,clear lake,43.138,-93.3794,305.76,67,0,3.05,US,1690416133
374,sambava,-14.2667,50.1667,293.54,83,64,5.25,MG,1690416206
375,broome,42.2506,-75.833,299.36,69,0,3.09,US,1690416206
376,fortuna,40.5982,-124.1573,295.33,68,0,8.23,US,1690416207
377,ljusdal,61.8288,16.0913,283.7,96,9,0.64,SE,1690416207
378,trinity beach,-16.7888,145.6968,297.6,83,75,6.69,AU,1690416208
379,igarka,67.4667,86.5833,293.46,80,1,3.48,RU,1690416208
380,mao,39.8885,4.2658,295.46,83,0,2.57,ES,1690416097
381,east porterville,36.0574,-118.9757,314.97,9,49,3.04,US,1690416209
382,aldinga beach,-35.2793,138.4604,290.52,56,15,6.03,AU,1690416210
383,khushab,32.2967,72.3525,303.46,72,39,2.58,PK,1690416210
384,plouzane,48.3833,-4.6167,290.25,88,100,8.23,FR,1690416211
385,bathsheba,13.2167,-59.5167,301.51,89,20,8.23,BB,1690416211
386,loukhi,66.0764,33.0381,283.34,95,14,1.25,RU,1690416212
387,peterhead,57.5058,-1.7981,286.37,82,7,5.99,GB,1690416212
388,soe,-9.8607,124.284,292.75,65,47,1.45,ID,1690416217
389,kita,13.0349,-9.4895,297.38,90,99,1.55,ML,1690416218
390,n'dalatando,-9.2978,14.9116,290.01,81,0,1.22,AO,1690416218
391,jawf al maqbabah,13.8378,45.8349,300.27,60,55,1.2,YE,1690416219
392,nichinan,31.6,131.3667,299.97,79,36,2.63,JP,1690416220
393,paita,-5.0892,-81.1144,295.16,80,37,8.06,PE,1690416220
394,iskilip,40.7353,34.4739,295.81,30,0,0.55,TR,1690416221
395,blairgowrie,56.5916,-3.3405,287.05,93,100,0.45,GB,1690416221
396,huichapan,20.3833,-99.65,294.29,47,91,6.81,MX,1690416222
397,tayshet,55.9342,98.0044,289.11,95,64,2.55,RU,1690416223
398,campbell river,50.0163,-125.2446,295.15,49,40,1.03,CA,1690416119
399,chifeng,42.2683,118.9636,299.82,65,94,3.49,CN,1690416224
400,polyarnyy,69.1989,33.4478,283.23,97,100,1.27,RU,1690416125
401,harstad,68.799,16.5293,285.81,93,42,2.05,NO,1690416224
402,belyy yar,53.6039,91.3903,287.09,94,7,0.0,RU,1690416225
403,fort mcmurray,56.7268,-111.381,293.92,56,40,3.09,CA,1690416026
404,simanggang,1.2472,111.4528,296.14,94,72,0.0,MY,1690416226
405,sola,-13.8833,167.55,298.52,89,100,5.14,VU,1690415985
406,hampton bays,40.869,-72.5176,299.23,87,4,0.45,US,1690416227
407,diourbel,14.6628,-16.3925,303.14,84,0,2.06,SN,1690416227
408,chidawa,28.2401,75.6456,301.09,80,99,2.87,IN,1690416228
409,anzio,41.4853,12.6179,297.51,59,2,4.42,IT,1690416228
410,wulingyuan,29.3494,110.5441,297.92,91,100,0.63,CN,1690416229
411,cassia,-20.5831,-46.9219,291.53,43,29,1.17,BR,1690416210
412,chagoda,59.164,35.3285,285.56,98,10,2.08,RU,1690416229
413,nizhnegorskiy,45.4479,34.7384,294.14,73,0,5.14,UA,1690416230
414,sylvester,31.5307,-83.8354,305.78,62,53,1.87,US,1690416231
415,yunak,38.8142,31.7322,297.4,25,0,2.49,TR,1690416231
416,guapiles,10.2159,-83.7866,301.95,98,97,0.82,CR,1690415952
417,luderitz,-26.6481,15.1594,285.77,72,0,3.78,NA,1690416232
418,alice springs,-23.7,133.8833,289.9,63,100,0.0,AU,1690416232
419,santiago de chuco,-8.15,-78.1833,285.1,63,53,0.5,PE,1690416233
420,xining,36.6167,101.7667,286.88,93,100,0.87,CN,1690416019
421,copiapo,-27.3667,-70.3333,285.98,69,3,1.14,CL,1690416092
422,kijang,35.2442,129.2139,299.0,71,19,1.21,KR,1690416234
423,rechka-vydrino,51.485,104.8461,288.77,75,14,1.9,RU,1690416235
424,kavieng,-2.5744,150.7967,301.8,74,41,4.02,PG,1690416235
425,smithers,54.7804,-127.1743,292.33,48,75,6.69,CA,1690416236
426,timmins,48.4669,-81.3331,295.05,78,100,2.06,CA,1690416236
427,berezovyy,51.6667,135.7,298.41,65,65,0.25,RU,1690416237
428,meadow lake,34.8014,-106.5436,311.27,16,45,2.61,US,1690416237
429,san luis,-33.295,-66.3356,283.1,42,96,4.63,AR,1690416234
430,sao vicente,-23.9631,-46.3919,302.25,26,24,2.2,BR,1690416239
431,mejit,10.2753,170.8646,301.39,79,100,7.5,MH,1690416133
432,morehead city,34.7229,-76.726,302.17,83,20,3.6,US,1690416240
433,pizarro,4.9533,-77.366,299.26,85,48,2.39,CO,1690416240
434,oyem,1.5995,11.5793,293.02,99,64,1.08,GA,1690416241
435,la ronge,55.1001,-105.2842,285.29,87,100,6.69,CA,1690416242
436,viedma,-40.8135,-62.9967,278.13,70,95,3.65,AR,1690416242
437,plettenberg bay,-34.0527,23.3716,284.69,86,37,3.44,ZA,1690416090
438,felahiye,39.0906,35.5672,282.56,24,0,0.93,TR,1690416244
439,nagqu,31.5,92.0,278.28,75,100,1.27,CN,1690416245
440,melfort,52.8667,-104.6177,295.22,35,36,5.66,CA,1690416246
441,as sulayyil,20.4607,45.5779,306.29,9,34,3.12,SA,1690416246
442,bowen,-20.0167,148.2333,295.36,64,79,9.25,AU,1690416247
443,afaahiti,-17.75,-149.2833,297.08,85,69,3.54,PF,1690416247
444,ranot,7.7777,100.3213,300.26,81,97,5.6,TH,1690416248
445,seguela,7.9611,-6.6731,295.02,97,15,2.12,CI,1690416248
446,cobija,-11.0267,-68.7692,304.25,58,47,1.54,BO,1690416249
447,brokopondo,4.75,-55.1667,298.68,86,29,3.56,SR,1690416249
448,puerto rosario,-24.45,-57.0833,293.7,61,72,2.4,PY,1690416250
449,videle,44.2781,25.5244,294.12,82,100,5.64,RO,1690416250
450,lock haven,41.137,-77.4469,301.42,64,41,1.67,US,1690416251
451,road town,18.4167,-64.6167,302.17,74,20,5.66,VG,1690416056
452,santa maria da vitoria,-13.3947,-44.1886,295.94,39,38,0.7,BR,1690416184
453,tsiombe,-25.3,45.4833,291.06,58,0,5.72,MG,1690415958
454,manokwari,-0.8667,134.0833,300.8,74,43,1.45,ID,1690416254
455,nelson bay,-32.7167,152.15,288.71,81,0,3.13,AU,1690416254
456,petrovsk-zabaykal'skiy,51.273,108.843,289.16,88,100,2.1,RU,1690416255
457,kapuskasing,49.4169,-82.4331,296.2,60,75,1.54,CA,1690415997
458,wenchang,30.904,118.4887,302.02,75,63,2.81,CN,1690416257
459,mecca,21.4267,39.8261,307.01,15,41,1.6,SA,1690416258
460,tanjung pandan,-2.75,107.65,299.16,83,65,3.55,ID,1690416258
461,gornyye klyuchi,45.25,133.5,300.3,70,10,2.65,RU,1690416259
462,qamdo,31.1667,97.2333,276.1,83,31,2.59,CN,1690415990
463,mugia,43.1041,-9.2179,292.54,82,42,4.55,ES,1690416260
464,sejenane,37.0572,9.2381,295.81,72,0,3.13,TN,1690416260
465,taro,-8.3862,115.28,293.15,85,47,1.14,ID,1690416261
466,bamor kalan,24.9,78.15,301.89,73,100,1.7,IN,1690416261
467,popondetta,-8.7537,148.2534,301.66,62,87,1.09,PG,1690416262
468,sabang,5.8933,95.3214,301.17,77,96,8.43,ID,1690416262
469,aioun,16.6614,-9.6149,306.87,45,35,6.29,MR,1690416263
470,yacuiba,-22.038,-63.6797,285.18,74,1,1.34,BO,1690416263
471,kone,-21.0595,164.8658,296.38,40,2,3.57,NC,1690416264
472,hilo,19.7297,-155.09,306.64,84,39,3.13,US,1690416264
473,ndele,8.4109,20.6473,294.23,96,88,1.21,CF,1690416265
474,manistee,44.2445,-86.3242,297.16,97,100,2.06,US,1690416265
475,san angelo,31.4638,-100.437,311.51,25,20,3.6,US,1690416185
476,tam ky,15.5667,108.4833,300.56,73,99,2.08,VN,1690416267
477,caleta de carquin,-11.0925,-77.6267,292.99,79,25,5.09,PE,1690416268
478,miracema do tocantins,-9.5618,-48.3967,298.89,37,45,1.7,BR,1690416268
479,newman,37.3138,-121.0208,313.34,11,0,6.29,US,1690416269
480,bahau,2.8079,102.4049,299.99,90,99,1.05,MY,1690416270
481,soissons,49.3333,3.3333,290.6,78,100,3.61,FR,1690416270
482,isangel,-19.55,169.2667,296.21,64,20,5.14,VU,1690416271
483,banda aceh,5.5577,95.3222,299.97,74,100,5.32,ID,1690416271
484,saint-felicien,48.6501,-72.4491,298.53,53,100,2.57,CA,1690416272
485,nouadhibou,20.931,-17.0347,296.14,73,88,8.23,MR,1690416272
486,cumana,10.4635,-64.1775,300.28,84,83,1.6,VE,1690416273
487,luang prabang,19.8856,102.1347,299.54,81,65,0.71,LA,1690416274
488,timimoun,29.2639,0.231,313.36,7,0,7.72,DZ,1690416274
489,etawa,24.1855,78.2031,301.12,74,100,1.72,IN,1690416275
490,gadzhiyevo,69.2551,33.3362,283.02,95,100,2.13,RU,1690416045
491,cruzeiro do oeste,-23.785,-53.0733,294.9,51,62,0.97,BR,1690416275
492,sinjai,-5.1241,120.253,298.11,83,28,1.25,ID,1690416276
493,zherdevka,51.8486,41.4606,295.98,54,44,4.99,RU,1690416276
494,koumra,8.9126,17.5539,294.75,95,99,0.3,TD,1690416277
495,fortaleza,-3.7227,-38.5247,300.22,78,20,4.63,BR,1690416008
496,kayangel,8.0823,134.7173,299.53,85,100,9.76,PW,1690416278
497,pariaman,-0.619,100.12,297.18,81,99,1.18,ID,1690416278
498,puerto el triunfo,13.2833,-88.55,302.06,72,87,1.57,SV,1690416279
499,lowell,42.6334,-71.3162,301.9,73,31,2.26,US,1690416086
500,andradas,-22.0681,-46.5692,290.08,52,55,1.72,BR,1690416104
501,kingscliff,-28.2667,153.5667,292.46,59,100,3.09,AU,1690416198
502,antonio enes,-16.2325,39.9086,292.87,78,0,4.24,MZ,1690416280
503,northam,51.0333,-4.2167,291.29,98,100,9.5,GB,1690416281
504,nguruka,-5.1092,31.0419,288.99,42,34,1.37,TZ,1690416282
505,el calafate,-50.3408,-72.2768,269.55,72,78,0.64,AR,1690416282
506,queenstown,-31.8976,26.8753,284.21,81,99,2.76,ZA,1690415987
507,hirara,24.8,125.2833,302.07,89,75,10.29,JP,1690416283
508,karratha,-20.7377,116.8463,293.1,59,57,4.07,AU,1690415999
509,general conesa,-40.1,-64.4333,278.78,56,99,3.04,AR,1690416284
510,conception bay south,47.4999,-52.9981,295.68,82,99,5.28,CA,1690416164
511,uvalde,29.3669,-99.767,311.1,19,0,4.63,US,1690416285
512,thunder bay,48.4001,-89.3168,295.14,78,20,5.66,CA,1690416193
513,vorotynets,56.0603,45.8633,291.94,95,33,4.31,RU,1690416286
514,tchintabaraden,15.8969,5.7985,306.91,42,96,6.81,NE,1690416287
515,opuwo,-18.0607,13.84,289.02,39,0,1.73,NA,1690416094
516,boden,65.8252,21.6886,289.15,92,96,1.56,SE,1690416287
517,kristiansund,63.1115,7.732,288.18,94,100,2.57,NO,1690416288
518,villanueva,15.3167,-88.0,303.7,58,20,5.14,HN,1690416289
519,maragogi,-9.0122,-35.2225,296.2,84,23,2.34,BR,1690416030
520,kolonia town,6.964,158.206,301.19,76,96,3.71,FM,1690416289
521,fraserburgh,57.6874,-2.0184,285.61,84,6,6.34,GB,1690416290
522,betio village,1.358,172.9211,304.17,74,70,2.62,KI,1690416290
523,illizi,26.4833,8.4667,306.04,10,0,4.66,DZ,1690416291
524,port blair,11.6667,92.75,301.17,83,75,3.6,IN,1690416291
525,yakeshi,49.2833,120.7333,290.08,97,100,0.37,CN,1690416292
526,torbat-e heydariyeh,35.274,59.2195,298.0,39,0,6.11,IR,1690416292
527,lisala,2.15,21.5167,295.42,86,60,0.66,CD,1690416293
528,shatrovo,56.5167,64.6333,287.01,85,29,2.38,RU,1690416293
529,gustavsberg,59.3268,18.3898,289.14,82,91,3.51,SE,1690416293
530,martapura,-3.4167,114.85,295.2,94,56,1.03,ID,1690416294
531,pankrushikha,53.8319,80.3406,292.82,53,88,2.02,RU,1690416295
532,mamuju,-2.6748,118.8885,299.7,75,57,1.39,ID,1690416295
533,acara,-1.9608,-48.1967,299.33,73,73,1.42,BR,1690416295
534,labrador city,52.9463,-66.9114,290.1,77,75,3.6,CA,1690416009
535,oyotun,-6.8519,-79.3036,296.73,71,92,2.34,PE,1690416296
536,weligama,5.9667,80.4167,298.16,90,98,2.86,LK,1690416297
537,lammi,61.0833,25.0167,286.77,92,100,2.34,FI,1690416298
538,winnemucca,40.973,-117.7357,310.18,8,0,6.17,US,1690416298
539,kenora,49.8167,-94.4337,302.69,48,40,4.63,CA,1690416064
540,novo aripuana,-5.1206,-60.3797,299.69,51,66,1.36,BR,1690416300
541,ulsan,35.5372,129.3167,302.61,66,30,0.71,KR,1690416294
542,amasra,41.7463,32.3863,299.99,46,0,5.37,TR,1690416301
543,hami,42.8,93.45,303.32,12,2,3.39,CN,1690416301
544,borogontsy,62.6683,131.1683,293.52,44,39,2.95,RU,1690416301
545,rhinelander,45.6366,-89.4121,301.99,54,0,2.57,US,1690416098
546,robore,-18.3333,-59.75,297.59,51,95,2.25,BO,1690416303
547,valga,57.7778,26.0473,285.93,93,54,2.01,EE,1690416304
548,horta,38.5333,-28.6333,295.94,95,40,4.02,PT,1690416304
549,boysun,38.2061,67.1986,299.47,19,1,2.54,UZ,1690416305
550,dunedin,-45.8742,170.5036,281.93,52,99,6.26,NZ,1690416232
551,islamorada,24.9243,-80.6278,300.37,90,100,4.47,US,1690416306
552,yashkul',46.1711,45.3435,297.38,47,0,2.82,RU,1690416307
553,armagh,54.35,-6.6667,289.68,99,100,3.42,GB,1690416055
554,prince george,53.9166,-122.753,293.29,57,100,4.12,CA,1690416134
555,selfoss,63.9331,-20.9971,283.73,77,100,2.75,IS,1690416308
556,poso,-1.3959,120.7524,300.27,74,34,1.66,ID,1690416309
557,cestos city,5.46,-9.5828,298.06,89,83,3.29,LR,1690416310
558,ulladulla,-35.35,150.4667,288.39,41,0,2.3,AU,1690416310
559,long beach,33.767,-118.1892,311.9,58,20,4.92,US,1690416030
560,quiberon,47.4841,-3.1196,290.97,87,95,5.81,FR,1690416311
561,borgo val di taro,44.487,9.7658,292.97,65,25,0.38,IT,1690416312
562,temple terrace,28.0353,-82.3893,305.87,77,75,4.63,US,1690416028
563,huatabampo,26.8333,-109.6333,309.44,55,48,4.97,MX,1690416298
564,salinas,36.6777,-121.6555,302.6,71,40,4.63,US,1690416035
565,taza,34.25,-3.75,298.29,41,0,3.55,MA,1690416314
566,obudu,6.6674,9.1716,297.09,93,94,1.99,NG,1690416314
